[
  {"name": "Tokyo", "country": "Japan", "latitude": 35.6895, "longitude": 139.6917, "population": 37435191},
  {"name": "São Paulo", "country": "Brazil", "latitude": -23.5505, "longitude": -46.6333, "population": 22043028},
  {"name": "New York", "country": "United States", "latitude": 40.7128, "longitude": -74.0060, "population": 18804000},
  {"name": "Cairo", "country": "Egypt", "latitude": 30.0444, "longitude": 31.2357, "population": 20901000},
  {"name": "Osaka", "country": "Japan", "latitude": 34.6937, "longitude": 135.5023, "population": 19222665},
  {"name": "Buenos Aires", "country": "Argentina", "latitude": -34.6037, "longitude": -58.3816, "population": 15153729},
  {"name": "Istanbul", "country": "Turkey", "latitude": 41.0082, "longitude": 28.9784, "population": 15029231},
  {"name": "Manila", "country": "Philippines", "latitude": 14.5995, "longitude": 120.9842, "population": 13923452},
  {"name": "Lagos", "country": "Nigeria", "latitude": 6.5244, "longitude": 3.3792, "population": 13463000},
  {"name": "Rio de Janeiro", "country": "Brazil", "latitude": -22.9068, "longitude": -43.1729, "population": 13374000},
  {"name": "Los Angeles", "country": "United States", "latitude": 34.0522, "longitude": -118.2437, "population": 12948000},
  {"name": "Kinshasa", "country": "DR Congo", "latitude": -4.4419, "longitude": 15.2663, "population": 11856000},
  {"name": "Paris", "country": "France", "latitude": 48.8566, "longitude": 2.3522, "population": 11017000},
  {"name": "Bogotá", "country": "Colombia", "latitude": 4.7110, "longitude": -74.0721, "population": 10978000},
  {"name": "Jakarta", "country": "Indonesia", "latitude": -6.2088, "longitude": 106.8456, "population": 10770487},
  {"name": "Lima", "country": "Peru", "latitude": -12.0464, "longitude": -77.0428, "population": 10669000},
  {"name": "Bangkok", "country": "Thailand", "latitude": 13.7563, "longitude": 100.5018, "population": 10539000},
  {"name": "Seoul", "country": "South Korea", "latitude": 37.5665, "longitude": 126.9780, "population": 10452000},
  {"name": "Nagoya", "country": "Japan", "latitude": 35.1815, "longitude": 136.9066, "population": 10207000},
  {"name": "Hyderabad", "country": "India", "latitude": 17.3850, "longitude": 78.4867, "population": 10143000},
  {"name": "Chicago", "country": "United States", "latitude": 41.8781, "longitude": -87.6298, "population": 10067000},
  {"name": "London", "country": "United Kingdom", "latitude": 51.5074, "longitude": -0.1278, "population": 9002488},
  {"name": "Tehran", "country": "Iran", "latitude": 35.6892, "longitude": 51.3890, "population": 8693706},
  {"name": "Ho Chi Minh City", "country": "Vietnam", "latitude": 10.8231, "longitude": 106.6297, "population": 8310500},
  {"name": "Luanda", "country": "Angola", "latitude": -8.8390, "longitude": 13.2894, "population": 8257060},
  {"name": "Ahmedabad", "country": "India", "latitude": 23.0225, "longitude": 72.5714, "population": 8000000},
  {"name": "Kuala Lumpur", "country": "Malaysia", "latitude": 3.1390, "longitude": 101.6869, "population": 7896700},
  {"name": "Hangzhou", "country": "China", "latitude": 30.2741, "longitude": 120.1551, "population": 7711800},
  {"name": "Hong Kong", "country": "Hong Kong", "latitude": 22.3193, "longitude": 114.1694, "population": 7500700},
  {"name": "Toronto", "country": "Canada", "latitude": 43.6532, "longitude": -79.3832, "population": 6939000},
  {"name": "Santiago", "country": "Chile", "latitude": -33.4489, "longitude": -70.6693, "population": 6767400},
  {"name": "Dallas", "country": "United States", "latitude": 32.7767, "longitude": -96.7970, "population": 6719000},
  {"name": "Madrid", "country": "Spain", "latitude": 40.4168, "longitude": -3.7038, "population": 6666600},
  {"name": "Barcelona", "country": "Spain", "latitude": 41.3851, "longitude": 2.1734, "population": 5515000},
  {"name": "Philadelphia", "country": "United States", "latitude": 39.9526, "longitude": -75.1652, "population": 5512000},
  {"name": "Houston", "country": "United States", "latitude": 29.7604, "longitude": -95.3698, "population": 5467000},
  {"name": "Washington", "country": "United States", "latitude": 38.9072, "longitude": -77.0369, "population": 5418000},
  {"name": "Singapore", "country": "Singapore", "latitude": 1.3521, "longitude": 103.8198, "population": 5399200},
  {"name": "Miami", "country": "United States", "latitude": 25.7617, "longitude": -80.1918, "population": 5322000},
  {"name": "Atlanta", "country": "United States", "latitude": 33.7490, "longitude": -84.3880, "population": 5246000},
  {"name": "Sydney", "country": "Australia", "latitude": -33.8688, "longitude": 151.2093, "population": 5131300},
  {"name": "Alexandria", "country": "Egypt", "latitude": 31.2001, "longitude": 29.9187, "population": 5123000},
  {"name": "Melbourne", "country": "Australia", "latitude": -37.8136, "longitude": 144.9631, "population": 5078200},
  {"name": "Guadalajara", "country": "Mexico", "latitude": 20.6597, "longitude": -103.3496, "population": 5008000}
]
